{
  "stations": [
	{
	  "lat": 48.263424,
	  "lon": 16.451707,
	  "name": "Aderklaaer Straße"
	},
	{
	  "lat": 48.153707,
	  "lon": 16.382446,
	  "name": "Alaudagasse"
	},
	{
	  "lat": 48.216756,
	  "lon": 16.341840,
	  "name": "Alser Straße"
	},
	{
	  "lat": 48.238260,
	  "lon": 16.424787,
	  "name": "Alte Donau"
	},
	{
	  "lat": 48.150501,
	  "lon": 16.316913,
	  "name": "Alterlaa"
	},
	{
	  "lat": 48.162352,
	  "lon": 16.383424,
	  "name": "Altes Landgut"
	},
	{
	  "lat": 48.160671,
	  "lon": 16.324226,
	  "name": "Am Schöpfwerk"
	},
	{
	  "lat": 48.234439,
	  "lon": 16.504505,
	  "name": "Aspern Nord"
	},
	{
	  "lat": 48.222560,
	  "lon": 16.474993,
	  "name": "Aspernstraße"
	},
	{
	  "lat": 48.173524,
	  "lon": 16.331517,
	  "name": "Bahnhof Meidling"
	},
	{
	  "lat": 48.189394,
	  "lon": 16.295791,
	  "name": "Braunschweiggasse"
	},
	{
	  "lat": 48.202974,
	  "lon": 16.337264,
	  "name": "Burggasse-Stadthalle"
	},
	{
	  "lat": 48.229185,
	  "lon": 16.411429,
	  "name": "Donauinsel"
	},
	{
	  "lat": 48.206364,
	  "lon": 16.431480,
	  "name": "Donaumarina"
	},
	{
	  "lat": 48.219379,
	  "lon": 16.466593,
	  "name": "Donauspital"
	},
	{
	  "lat": 48.211791,
	  "lon": 16.440187,
	  "name": "Donaustadtbrücke"
	},
	{
	  "lat": 48.237265,
	  "lon": 16.380289,
	  "name": "Dresdner Straße"
	},
	{
	  "lat": 48.174643,
	  "lon": 16.414577,
	  "name": "Enkplatz"
	},
	{
	  "lat": 48.191407,
	  "lon": 16.414078,
	  "name": "Erdberg"
	},
	{
	  "lat": 48.141986,
	  "lon": 16.316547,
	  "name": "Erlaaer Straße"
	},
	{
	  "lat": 48.256160,
	  "lon": 16.400562,
	  "name": "Floridsdorf"
	},
	{
	  "lat": 48.227779,
	  "lon": 16.364162,
	  "name": "Friedensbrücke"
	},
	{
	  "lat": 48.185153,
	  "lon": 16.417440,
	  "name": "Gasometer"
	},
	{
	  "lat": 48.271114,
	  "lon": 16.447949,
	  "name": "Großfeldsiedlung"
	},
	{
	  "lat": 48.190733,
	  "lon": 16.337568,
	  "name": "Gumpendorfer Straße"
	},
	{
	  "lat": 48.241705,
	  "lon": 16.385417,
	  "name": "Handelskai"
	},
	{
	  "lat": 48.220833,
	  "lon": 16.457754,
	  "name": "Hardeggasse"
	},
	{
	  "lat": 48.233366,
	  "lon": 16.485773,
	  "name": "Hausfeldstraße"
	},
	{
	  "lat": 48.248691,
	  "lon": 16.365973,
	  "name": "Heiligenstadt"
	},
	{
	  "lat": 48.209234,
	  "lon": 16.365133,
	  "name": "Herrengasse"
	},
	{
	  "lat": 48.187568,
	  "lon": 16.304557,
	  "name": "Hietzing"
	},
	{
	  "lat": 48.196908,
	  "lon": 16.260824,
	  "name": "Hütteldorf"
	},
	{
	  "lat": 48.199742,
	  "lon": 16.311348,
	  "name": "Hütteldorfer Straße"
	},
	{
	  "lat": 48.197563,
	  "lon": 16.320130,
	  "name": "Johnstraße"
	},
	{
	  "lat": 48.211460,
	  "lon": 16.339196,
	  "name": "Josefstädter Straße"
	},
	{
	  "lat": 48.235149,
	  "lon": 16.368667,
	  "name": "Jägerstraße"
	},
	{
	  "lat": 48.242942,
	  "lon": 16.432986,
	  "name": "Kagran"
	},
	{
	  "lat": 48.250200,
	  "lon": 16.443344,
	  "name": "Kagraner Platz"
	},
	{
	  "lat": 48.232815,
	  "lon": 16.416429,
	  "name": "Kaisermühlen VIC"
	},
	{
	  "lat": 48.197538,
	  "lon": 16.399844,
	  "name": "Kardinal-Nagl-Platz"
	},
	{
	  "lat": 48.201627,
	  "lon": 16.369290,
	  "name": "Karlsplatz"
	},
	{
	  "lat": 48.204586,
	  "lon": 16.309033,
	  "name": "Kendlerstraße"
	},
	{
	  "lat": 48.179369,
	  "lon": 16.376181,
	  "name": "Keplerplatz"
	},
	{
	  "lat": 48.196622,
	  "lon": 16.358115,
	  "name": "Kettenbrückengasse"
	},
	{
	  "lat": 48.214649,
	  "lon": 16.413683,
	  "name": "Krieau"
	},
	{
	  "lat": 48.205735,
	  "lon": 16.385647,
	  "name": "Landstraße"
	},
	{
	  "lat": 48.277524,
	  "lon": 16.452075,
	  "name": "Leopoldau"
	},
	{
	  "lat": 48.184909,
	  "lon": 16.335063,
	  "name": "Längenfeldgasse"
	},
	{
	  "lat": 48.188475,
	  "lon": 16.343013,
	  "name": "Margaretengürtel"
	},
	{
	  "lat": 48.183561,
	  "lon": 16.328082,
	  "name": "Meidling Hauptstraße"
	},
	{
	  "lat": 48.217718,
	  "lon": 16.404929,
	  "name": "Messe-Prater"
	},
	{
	  "lat": 48.221141,
	  "lon": 16.344221,
	  "name": "Michelbeuern-AKH"
	},
	{
	  "lat": 48.202706,
	  "lon": 16.361240,
	  "name": "Museumsquartier"
	},
	{
	  "lat": 48.215279,
	  "lon": 16.385599,
	  "name": "Nestroyplatz"
	},
	{
	  "lat": 48.199211,
	  "lon": 16.352533,
	  "name": "Neubaugasse"
	},
	{
	  "lat": 48.246293,
	  "lon": 16.394730,
	  "name": "Neue Donau"
	},
	{
	  "lat": 48.145815,
	  "lon": 16.385639,
	  "name": "Neulaa"
	},
	{
	  "lat": 48.180756,
	  "lon": 16.331240,
	  "name": "Niederhofstraße"
	},
	{
	  "lat": 48.231318,
	  "lon": 16.352479,
	  "name": "Nußdorfer Straße"
	},
	{
	  "lat": 48.192223,
	  "lon": 16.276157,
	  "name": "Ober St. Veit"
	},
	{
	  "lat": 48.142365,
	  "lon": 16.399905,
	  "name": "Oberlaa"
	},
	{
	  "lat": 48.211034,
	  "lon": 16.311335,
	  "name": "Ottakring"
	},
	{
	  "lat": 48.136611,
	  "lon": 16.313270,
	  "name": "Perfektastraße"
	},
	{
	  "lat": 48.192152,
	  "lon": 16.354322,
	  "name": "Pilgramgasse"
	},
	{
	  "lat": 48.219688,
	  "lon": 16.393049,
	  "name": "Praterstern"
	},
	{
	  "lat": 48.210104,
	  "lon": 16.355425,
	  "name": "Rathaus"
	},
	{
	  "lat": 48.257585,
	  "lon": 16.449709,
	  "name": "Rennbahnweg"
	},
	{
	  "lat": 48.174954,
	  "lon": 16.377964,
	  "name": "Reumannplatz"
	},
	{
	  "lat": 48.202058,
	  "lon": 16.392216,
	  "name": "Rochusgasse"
	},
	{
	  "lat": 48.222340,
	  "lon": 16.367592,
	  "name": "Roßauer Lände"
	},
	{
	  "lat": 48.194373,
	  "lon": 16.406693,
	  "name": "Schlachthausgasse"
	},
	{
	  "lat": 48.217226,
	  "lon": 16.372258,
	  "name": "Schottenring"
	},
	{
	  "lat": 48.215009,
	  "lon": 16.362962,
	  "name": "Schottentor"
	},
	{
	  "lat": 48.211786,
	  "lon": 16.378099,
	  "name": "Schwedenplatz"
	},
	{
	  "lat": 48.197499,
	  "lon": 16.328724,
	  "name": "Schweglerstraße"
	},
	{
	  "lat": 48.186009,
	  "lon": 16.319028,
	  "name": "Schönbrunn"
	},
	{
	  "lat": 48.226282,
	  "lon": 16.508331,
	  "name": "Seestadt"
	},
	{
	  "lat": 48.130501,
	  "lon": 16.309862,
	  "name": "Siebenhirten"
	},
	{
	  "lat": 48.169739,
	  "lon": 16.420463,
	  "name": "Simmering"
	},
	{
	  "lat": 48.235051,
	  "lon": 16.358565,
	  "name": "Spittelau"
	},
	{
	  "lat": 48.210416,
	  "lon": 16.420365,
	  "name": "Stadion"
	},
	{
	  "lat": 48.219718,
	  "lon": 16.449609,
	  "name": "Stadlau"
	},
	{
	  "lat": 48.202949,
	  "lon": 16.379855,
	  "name": "Stadtpark"
	},
	{
	  "lat": 48.208050,
	  "lon": 16.371605,
	  "name": "Stephansplatz"
	},
	{
	  "lat": 48.206891,
	  "lon": 16.379187,
	  "name": "Stubentor"
	},
	{
	  "lat": 48.187090,
	  "lon": 16.373657,
	  "name": "Südtiroler Platz-Hauptbahnhof"
	},
	{
	  "lat": 48.219112,
	  "lon": 16.381655,
	  "name": "Taborstraße"
	},
	{
	  "lat": 48.193696,
	  "lon": 16.370481,
	  "name": "Taubstummengasse"
	},
	{
	  "lat": 48.207792,
	  "lon": 16.338030,
	  "name": "Thaliastraße"
	},
	{
	  "lat": 48.169045,
	  "lon": 16.380459,
	  "name": "Troststraße"
	},
	{
	  "lat": 48.164973,
	  "lon": 16.327814,
	  "name": "Tscherttegasse"
	},
	{
	  "lat": 48.191055,
	  "lon": 16.286347,
	  "name": "Unter St. Veit"
	},
	{
	  "lat": 48.205617,
	  "lon": 16.359212,
	  "name": "Volkstheater"
	},
	{
	  "lat": 48.223623,
	  "lon": 16.401072,
	  "name": "Vorgartenstraße"
	},
	{
	  "lat": 48.195776,
	  "lon": 16.337927,
	  "name": "Westbahnhof"
	},
	{
	  "lat": 48.225619,
	  "lon": 16.349545,
	  "name": "Währinger Straße-Volksoper"
	},
	{
	  "lat": 48.197117,
	  "lon": 16.346303,
	  "name": "Zieglergasse"
	},
	{
	  "lat": 48.180348,
	  "lon": 16.411680,
	  "name": "Zippererstraße"
	}
  ],
  "lines": [
	{
	  "name": "U1",
	  "color": "#E20613",
	  "stops": [
		60,
		56,
		1,
		5,
		89,
		67,
		42,
		85,
		87,
		40,
		83,
		73,
		53,
		64,
		93,
		12,
		38,
		3,
		36,
		37,
		66,
		0,
		23,
		46
	  ]
	},
	{
	  "name": "U2",
	  "color": "#A762A4",
	  "stops": [
		40,
		52,
		92,
		65,
		72,
		71,
		86,
		64,
		50,
		44,
		80,
		13,
		15,
		81,
		26,
		14,
		8,
		27,
		7,
		76
	  ]
	},
	{
	  "name": "U3",
	  "color": "#EF7C00",
	  "stops": [
		61,
		41,
		32,
		33,
		74,
		94,
		96,
		54,
		92,
		29,
		83,
		84,
		45,
		68,
		39,
		70,
		18,
		22,
		97,
		17,
		78
	  ]
	},
	{
	  "name": "U4",
	  "color": "#029540",
	  "stops": [
		31,
		59,
		91,
		10,
		30,
		75,
		49,
		47,
		48,
		63,
		43,
		40,
		82,
		45,
		73,
		71,
		69,
		21,
		79,
		28
	  ]
	},
	{
	  "name": "U6",
	  "color": "#9C6830",
	  "stops": [
		77,
		62,
		19,
		4,
		6,
		90,
		9,
		57,
		47,
		24,
		94,
		11,
		88,
		34,
		2,
		51,
		95,
		58,
		79,
		35,
		16,
		25,
		55,
		20
	  ]
	}
  ]
}

